{
  "zones": [
    {"id": "center", "name": "Центр", "lat": 55.7558, "lon": 37.6173, "radius_km": 4},
    {"id": "kremlin", "name": "Кремль", "lat": 55.7520, "lon": 37.6175, "radius_km": 3},
    {"id": "tverskaya", "name": "Тверская", "lat": 55.7650, "lon": 37.6050, "radius_km": 3},
    {"id": "arbat", "name": "Арбат", "lat": 55.7520, "lon": 37.5900, "radius_km": 3},
    {"id": "kitay_gorod", "name": "Китай-город", "lat": 55.7550, "lon": 37.6350, "radius_km": 3},

    {"id": "north", "name": "Север", "lat": 55.8500, "lon": 37.6173, "radius_km": 5},
    {"id": "south", "name": "Юг", "lat": 55.6500, "lon": 37.6173, "radius_km": 5},
    {"id": "east", "name": "Восток", "lat": 55.7558, "lon": 37.8000, "radius_km": 5},
    {"id": "west", "name": "Запад", "lat": 55.7558, "lon": 37.4500, "radius_km": 5},

    {"id": "northwest", "name": "Северо-Запад", "lat": 55.8500, "lon": 37.4500, "radius_km": 5},
    {"id": "northeast", "name": "Северо-Восток", "lat": 55.8500, "lon": 37.8000, "radius_km": 5},
    {"id": "southwest", "name": "Юго-Запад", "lat": 55.6500, "lon": 37.4500, "radius_km": 5},
    {"id": "southeast", "name": "Юго-Восток", "lat": 55.6500, "lon": 37.8000, "radius_km": 5},

    {"id": "khimki", "name": "Химки", "lat": 55.8900, "lon": 37.4300, "radius_km": 4},
    {"id": "mytishchi", "name": "Мытищи", "lat": 55.9100, "lon": 37.7300, "radius_km": 4},
    {"id": "balashikha", "name": "Балашиха", "lat": 55.8000, "lon": 37.9500, "radius_km": 4},
    {"id": "zheleznodorozhny", "name": "Железнодорожный", "lat": 55.7454, "lon": 38.0104, "radius_km": 4},
    {"id": "lyubertsy", "name": "Люберцы", "lat": 55.6770, "lon": 37.8940, "radius_km": 4},
    {"id": "kotelniky", "name": "Котельники", "lat": 55.6556, "lon": 37.8644, "radius_km": 3},
    {"id": "reutov", "name": "Реутов", "lat": 55.7606, "lon": 37.8556, "radius_km": 3},
    {"id": "podolsk", "name": "Подольск", "lat": 55.4240, "lon": 37.5450, "radius_km": 4},
    {"id": "krasnogorsk", "name": "Красногорск", "lat": 55.8200, "lon": 37.3300, "radius_km": 4},
    {"id": "odintsovo", "name": "Одинцово", "lat": 55.6800, "lon": 37.2800, "radius_km": 4},
    {"id": "korolev", "name": "Королёв", "lat": 55.9200, "lon": 37.8300, "radius_km": 4},
    {"id": "vidnoye", "name": "Видное", "lat": 55.5500, "lon": 37.7000, "radius_km": 4},
    {"id": "schelkovo", "name": "Щёлково", "lat": 55.9200, "lon": 38.0300, "radius_km": 4},
    {"id": "dolgoprudny", "name": "Долгопрудный", "lat": 55.9400, "lon": 37.5100, "radius_km": 4},
    {"id": "zelenograd", "name": "Зеленоград", "lat": 55.9900, "lon": 37.1800, "radius_km": 4},
    {"id": "troitsk", "name": "Троицк", "lat": 55.4900, "lon": 37.3000, "radius_km": 4},
    {"id": "pushkino", "name": "Пушкино", "lat": 55.9900, "lon": 37.8500, "radius_km": 4},
    {"id": "krasnoselsky", "name": "Красносельский", "lat": 55.7800, "lon": 37.6700, "radius_km": 3},
    {"id": "zamoskvorechye", "name": "Замоскворечье", "lat": 55.7400, "lon": 37.6300, "radius_km": 3},
    {"id": "lefortovo", "name": "Лефортово", "lat": 55.7600, "lon": 37.7000, "radius_km": 3},
    {"id": "kuzminki", "name": "Кузьминки", "lat": 55.7050, "lon": 37.7650, "radius_km": 3},
    {"id": "marino", "name": "Марьино", "lat": 55.6500, "lon": 37.7500, "radius_km": 3},
    {"id": "yasenevo", "name": "Ясенево", "lat": 55.6050, "lon": 37.5350, "radius_km": 3},
    {"id": "konkovo", "name": "Коньково", "lat": 55.6330, "lon": 37.5200, "radius_km": 3},
    {"id": "tushino", "name": "Тушино", "lat": 55.8300, "lon": 37.4400, "radius_km": 3},
    {"id": "medvedkovo", "name": "Медведково", "lat": 55.8900, "lon": 37.6600, "radius_km": 3},
    {"id": "bibirevo", "name": "Бибирево", "lat": 55.8850, "lon": 37.6050, "radius_km": 3},
    {"id": "sviblovo", "name": "Свиблово", "lat": 55.8550, "lon": 37.6550, "radius_km": 3},
    {"id": "perovo", "name": "Перово", "lat": 55.7500, "lon": 37.7850, "radius_km": 3},
    {"id": "novokosino", "name": "Новокосино", "lat": 55.7450, "lon": 37.8650, "radius_km": 3}
  ]
}
