{
  "zones": [
    {"id": "center", "name": "Центр", "lat": 55.7558, "lon": 37.6173, "radius_km": 4},
    {"id": "kremlin", "name": "Кремль", "lat": 55.7520, "lon": 37.6175, "radius_km": 3},
    {"id": "tverskaya", "name": "Тверская", "lat": 55.7650, "lon": 37.6050, "radius_km": 3},
    {"id": "arbat", "name": "Арбат", "lat": 55.7520, "lon": 37.5900, "radius_km": 3},
    {"id": "kitay_gorod", "name": "Китай-город", "lat": 55.7550, "lon": 37.6350, "radius_km": 3},

    {"id": "north", "name": "Север", "lat": 55.8500, "lon": 37.6173, "radius_km": 5},
    {"id": "south", "name": "Юг", "lat": 55.6500, "lon": 37.6173, "radius_km": 5},
    {"id": "east", "name": "Восток", "lat": 55.7558, "lon": 37.8000, "radius_km": 5},
    {"id": "west", "name": "Запад", "lat": 55.7558, "lon": 37.4500, "radius_km": 5},

    {"id": "northwest", "name": "Северо-Запад", "lat": 55.8500, "lon": 37.4500, "radius_km": 5},
    {"id": "northeast", "name": "Северо-Восток", "lat": 55.8500, "lon": 37.8000, "radius_km": 5},
    {"id": "southwest", "name": "Юго-Запад", "lat": 55.6500, "lon": 37.4500, "radius_km": 5},
    {"id": "southeast", "name": "Юго-Восток", "lat": 55.6500, "lon": 37.8000, "radius_km": 5},

    {"id": "khimki", "name": "Химки", "lat": 55.8900, "lon": 37.4300, "radius_km": 4},
    {"id": "mytishchi", "name": "Мытищи", "lat": 55.9100, "lon": 37.7300, "radius_km": 4},
    {"id": "balashikha", "name": "Балашиха", "lat": 55.8000, "lon": 37.9500, "radius_km": 4},
    {"id": "zheleznodorozhny", "name": "Железнодорожный", "lat": 55.7454, "lon": 38.0104, "radius_km": 4},
    {"id": "lyubertsy", "name": "Люберцы", "lat": 55.6770, "lon": 37.8940, "radius_km": 4},
    {"id": "kotelniky", "name": "Котельники", "lat": 55.6556, "lon": 37.8644, "radius_km": 3},
    {"id": "reutov", "name": "Реутов", "lat": 55.7606, "lon": 37.8556, "radius_km": 3},
    {"id": "podolsk", "name": "Подольск", "lat": 55.4240, "lon": 37.5450, "radius_km": 4},
    {"id": "krasnogorsk", "name": "Красногорск", "lat": 55.8200, "lon": 37.3300, "radius_km": 4},
    {"id": "odintsovo", "name": "Одинцово", "lat": 55.6800, "lon": 37.2800, "radius_km": 4},
    {"id": "korolev", "name": "Королёв", "lat": 55.9200, "lon": 37.8300, "radius_km": 4},
    {"id": "vidnoye", "name": "Видное", "lat": 55.5500, "lon": 37.7000, "radius_km": 4},
    {"id": "schelkovo", "name": "Щёлково", "lat": 55.9200, "lon": 38.0300, "radius_km": 4},
    {"id": "dolgoprudny", "name": "Долгопрудный", "lat": 55.9400, "lon": 37.5100, "radius_km": 4},
    {"id": "zelenograd", "name": "Зеленоград", "lat": 55.9900, "lon": 37.1800, "radius_km": 4},
    {"id": "troitsk", "name": "Троицк", "lat": 55.4900, "lon": 37.3000, "radius_km": 4},
    {"id": "pushkino", "name": "Пушкино", "lat": 55.9900, "lon": 37.8500, "radius_km": 4},
    {"id": "krasnoselsky", "name": "Красносельский", "lat": 55.7800, "lon": 37.6700, "radius_km": 3},
    {"id": "zamoskvorechye", "name": "Замоскворечье", "lat": 55.7400, "lon": 37.6300, "radius_km": 3},
    {"id": "lefortovo", "name": "Лефортово", "lat": 55.7600, "lon": 37.7000, "radius_km": 3},
    {"id": "kuzminki", "name": "Кузьминки", "lat": 55.7050, "lon": 37.7650, "radius_km": 3},
    {"id": "marino", "name": "Марьино", "lat": 55.6500, "lon": 37.7500, "radius_km": 3},
    {"id": "yasenevo", "name": "Ясенево", "lat": 55.6050, "lon": 37.5350, "radius_km": 3},
    {"id": "konkovo", "name": "Коньково", "lat": 55.6330, "lon": 37.5200, "radius_km": 3},
    {"id": "tushino", "name": "Тушино", "lat": 55.8300, "lon": 37.4400, "radius_km": 3},
    {"id": "medvedkovo", "name": "Медведково", "lat": 55.8900, "lon": 37.6600, "radius_km": 3},
    {"id": "bibirevo", "name": "Бибирево", "lat": 55.8850, "lon": 37.6050, "radius_km": 3},
    {"id": "sviblovo", "name": "Свиблово", "lat": 55.8550, "lon": 37.6550, "radius_km": 3},
    {"id": "perovo", "name": "Перово", "lat": 55.7500, "lon": 37.7850, "radius_km": 3},
    {"id": "novokosino", "name": "Новокосино", "lat": 55.7450, "lon": 37.8650, "radius_km": 3},

    {"id": "sheremetyevo", "name": "Шереметьево", "lat": 55.9726, "lon": 37.4146, "radius_km": 5},
    {"id": "domodedovo", "name": "Домодедово", "lat": 55.4088, "lon": 37.9063, "radius_km": 5},
    {"id": "vnukovo", "name": "Внуково", "lat": 55.5914, "lon": 37.2615, "radius_km": 5},

    {"id": "kazansky_station", "name": "Казанский вокзал", "lat": 55.7731, "lon": 37.6556, "radius_km": 2},
    {"id": "leningradsky_station", "name": "Ленинградский вокзал", "lat": 55.7762, "lon": 37.6556, "radius_km": 2},
    {"id": "kursky_station", "name": "Курский вокзал", "lat": 55.7583, "lon": 37.6606, "radius_km": 2},
    {"id": "kievsky_station", "name": "Киевский вокзал", "lat": 55.7439, "lon": 37.5667, "radius_km": 2},
    {"id": "paveletsky_station", "name": "Павелецкий вокзал", "lat": 55.7297, "lon": 37.6394, "radius_km": 2},

    {"id": "moscow_city", "name": "Москва-Сити", "lat": 55.7494, "lon": 37.5378, "radius_km": 3},
    {"id": "sokolniki", "name": "Сокольники", "lat": 55.7894, "lon": 37.6797, "radius_km": 3},
    {"id": "izmailovo", "name": "Измайлово", "lat": 55.7900, "lon": 37.7500, "radius_km": 3},
    {"id": "strogino", "name": "Строгино", "lat": 55.8033, "lon": 37.4017, "radius_km": 3},
    {"id": "krylatskoe", "name": "Крылатское", "lat": 55.7567, "lon": 37.4083, "radius_km": 3},
    {"id": "tekstilshchiki", "name": "Текстильщики", "lat": 55.7083, "lon": 37.7317, "radius_km": 3},
    {"id": "chertanovo", "name": "Чертаново", "lat": 55.6417, "lon": 37.6050, "radius_km": 3},
    {"id": "butovo", "name": "Бутово", "lat": 55.5333, "lon": 37.5667, "radius_km": 4},

    {"id": "otradnoe", "name": "Отрадное", "lat": 55.8633, "lon": 37.6050, "radius_km": 3},
    {"id": "vykhino", "name": "Выхино", "lat": 55.7000, "lon": 37.8167, "radius_km": 3},
    {"id": "brateevo", "name": "Братеево", "lat": 55.6350, "lon": 37.7500, "radius_km": 3},
    {"id": "solntsevo", "name": "Солнцево", "lat": 55.6500, "lon": 37.3833, "radius_km": 3},
    {"id": "mitino", "name": "Митино", "lat": 55.8450, "lon": 37.3600, "radius_km": 3},
    {"id": "novogireevo", "name": "Новогиреево", "lat": 55.7517, "lon": 37.8167, "radius_km": 3},
    {"id": "yasenevo_south", "name": "Ясенево Южное", "lat": 55.5950, "lon": 37.5200, "radius_km": 3},
    {"id": "khovrino", "name": "Ховрино", "lat": 55.8717, "lon": 37.4717, "radius_km": 3},
    {"id": "altufevo", "name": "Алтуфьево", "lat": 55.8983, "lon": 37.5900, "radius_km": 3},
    {"id": "babushkinskaya", "name": "Бабушкинская", "lat": 55.8700, "lon": 37.6650, "radius_km": 3},

    {"id": "ramenskoye", "name": "Раменское", "lat": 55.5667, "lon": 38.2333, "radius_km": 4},
    {"id": "zhukovsky", "name": "Жуковский", "lat": 55.5967, "lon": 38.1200, "radius_km": 4},
    {"id": "ivanteevka", "name": "Ивантеевка", "lat": 55.9717, "lon": 37.9200, "radius_km": 4},
    {"id": "fryazino", "name": "Фрязино", "lat": 55.9600, "lon": 38.0450, "radius_km": 3},
    {"id": "lobnya", "name": "Лобня", "lat": 56.0100, "lon": 37.4800, "radius_km": 4},
    {"id": "khimki_north", "name": "Химки Северные", "lat": 55.9100, "lon": 37.4500, "radius_km": 3},
    {"id": "krasnoarmeysk", "name": "Красноармейск", "lat": 56.1100, "lon": 38.1400, "radius_km": 4},
    {"id": "elektrostal", "name": "Электросталь", "lat": 55.7900, "lon": 38.4500, "radius_km": 4},
    {"id": "noginsk", "name": "Ногинск", "lat": 55.8667, "lon": 38.4333, "radius_km": 4},
    {"id": "orekhovo_zuevo", "name": "Орехово-Зуево", "lat": 55.8067, "lon": 38.9617, "radius_km": 4},

    {"id": "vnukovo_village", "name": "Внуково посёлок", "lat": 55.6050, "lon": 37.2800, "radius_km": 3},
    {"id": "rumyantsevo", "name": "Румянцево", "lat": 55.6333, "lon": 37.4417, "radius_km": 3},
    {"id": "salaryevo", "name": "Саларьево", "lat": 55.6217, "lon": 37.4233, "radius_km": 3},
    {"id": "kommunarka", "name": "Коммунарка", "lat": 55.5617, "lon": 37.4733, "radius_km": 3},
    {"id": "novoperedelkino", "name": "Новопеределкино", "lat": 55.6433, "lon": 37.3817, "radius_km": 3},
    {"id": "yugo_zapadnaya", "name": "Юго-Западная", "lat": 55.6633, "lon": 37.4833, "radius_km": 3},
    {"id": "teply_stan", "name": "Тёплый Стан", "lat": 55.6183, "lon": 37.5083, "radius_km": 3},
    {"id": "yasenevo_metro", "name": "Ясенево метро", "lat": 55.6067, "lon": 37.5333, "radius_km": 2},
    {"id": "novoyasenevskaya", "name": "Новоясеневская", "lat": 55.6033, "lon": 37.5533, "radius_km": 2},
    {"id": "biryulevo", "name": "Бирюлёво", "lat": 55.6167, "lon": 37.6500, "radius_km": 3}
  ]
}
